{
  "0": {
    "id": 57,
    "name": "Matthew Barry Jr.",
    "address": "PSC 5358, Box 8587\nAPO AE 01489",
    "longitude": "172.654343",
    "latitude": "47.821773"
  },
  "1": {
    "id": 22,
    "name": "David Henry Jr.",
    "address": "008 Thomas Harbor\nNatalieport, LA 82246",
    "longitude": "124.204324",
    "latitude": "-8.7633665"
  },
  "2": {
    "id": 53,
    "name": "Peter Arias",
    "address": "981 Jessica Glen Suite 066\nAndrewstad, ND 70083",
    "longitude": "-124.320330",
    "latitude": "15.8453695"
  },
  "3": {
    "id": 47,
    "name": "Kyle Durham",
    "address": "8352 Grant Underpass\nPaulhaven, TX 39058",
    "longitude": "-126.715384",
    "latitude": "7.0438575"
  },
  "4": {
    "id": 41,
    "name": "Brandon Contreras MD",
    "address": "432 Jeffrey Vista Apt. 366\nSouth Pamelastad, NH 22219",
    "longitude": "-2.798221",
    "latitude": "-65.0897465"
  },
  "5": {
    "id": 16,
    "name": "Kara Richards",
    "address": "PSC 3743, Box 9326\nAPO AE 77443",
    "longitude": "46.922596",
    "latitude": "14.8365945"
  },
  "6": {
    "id": 13,
    "name": "Jose Espinoza",
    "address": "41784 Jimmy Ford Apt. 185\nCarlamouth, MA 03112",
    "longitude": "4.148882",
    "latitude": "-1.160119"
  },
  "7": {
    "id": 55,
    "name": "Christopher Mills",
    "address": "8277 Cynthia Road\nRichardsonton, IL 17947",
    "longitude": "-135.011152",
    "latitude": "80.8771055"
  },
  "8": {
    "id": 71,
    "name": "Jessica Hobbs",
    "address": "12671 Melton Prairie\nTapiaborough, AZ 87186",
    "longitude": "21.529769",
    "latitude": "79.562172"
  },
  "9": {
    "id": 68,
    "name": "Jessica Bell",
    "address": "7005 Teresa Landing Apt. 601\nEthanton, MT 84989",
    "longitude": "19.156010",
    "latitude": "-80.524654"
  },
  "10": {
    "id": 95,
    "name": "George Lindsey",
    "address": "0023 Martinez Plains Suite 159\nLake Johnside, AS 16063",
    "longitude": "-134.066324",
    "latitude": "36.2934805"
  },
  "11": {
    "id": 79,
    "name": "Paul Pugh",
    "address": "5472 Robert Club\nBradberg, MS 38305",
    "longitude": "-104.538587",
    "latitude": "0.5223615"
  },
  "12": {
    "id": 35,
    "name": "Sharon Campbell",
    "address": "789 Peterson Burgs Suite 719\nKennethchester, WV 87133",
    "longitude": "-37.860394",
    "latitude": "58.843721"
  },
  "13": {
    "id": 76,
    "name": "Alexis Howell",
    "address": "Unit 0803 Box 3087\nDPO AE 74100",
    "longitude": "6.908948",
    "latitude": "-4.316070"
  },
  "14": {
    "id": 46,
    "name": "Michael Spencer",
    "address": "6735 Lopez Village\nCopelandborough, AR 02268",
    "longitude": "-152.637467",
    "latitude": "77.592635"
  },
  "15": {
    "id": 81,
    "name": "Samuel Freeman",
    "address": "386 Shari Cliffs\nLake Justinton, VI 06263",
    "longitude": "93.417931",
    "latitude": "-66.0960675"
  },
  "16": {
    "id": 86,
    "name": "Charles Parks",
    "address": "269 William Gateway Suite 097\nWilliamsfurt, GU 88243",
    "longitude": "46.693121",
    "latitude": "-50.6996775"
  },
  "17": {
    "id": 82,
    "name": "James Davis",
    "address": "4059 Andrea Greens\nLake Kimberly, TN 06364",
    "longitude": "-178.099864",
    "latitude": "-39.078792"
  },
  "18": {
    "id": 61,
    "name": "Laura Oliver",
    "address": "11088 Patterson Place\nEvelynmouth, MN 67916",
    "longitude": "175.047034",
    "latitude": "78.7417915"
  },
  "19": {
    "id": 43,
    "name": "Kellie Lamb",
    "address": "Unit 1128 Box 2444\nDPO AA 95413",
    "longitude": "117.835133",
    "latitude": "37.1812025"
  },
  "20": {
    "id": 76,
    "name": "Jennifer Martinez",
    "address": "32767 Fletcher Valleys Suite 511\nTeresaburgh, IN 85639",
    "longitude": "-106.404506",
    "latitude": "51.5512905"
  },
  "21": {
    "id": 38,
    "name": "Stephanie Short",
    "address": "2973 Rodriguez Islands\nEast Russell, ND 31571",
    "longitude": "11.434616",
    "latitude": "71.3450015"
  },
  "22": {
    "id": 4,
    "name": "Pamela Owens",
    "address": "29083 Stewart Lights\nLake Robin, WV 67643",
    "longitude": "138.094770",
    "latitude": "58.142206"
  },
  "23": {
    "id": 30,
    "name": "Jennifer Parker",
    "address": "83920 Charles Terrace Suite 856\nEast Rebeccamouth, OK 81732",
    "longitude": "-136.049023",
    "latitude": "29.0988245"
  },
  "24": {
    "id": 11,
    "name": "Sherry Coleman",
    "address": "Unit 4644 Box 3644\nDPO AA 95176",
    "longitude": "71.843552",
    "latitude": "-37.2540975"
  },
  "25": {
    "id": 49,
    "name": "Brian Moore",
    "address": "13883 Hughes Mission Apt. 153\nNew Brandon, NC 64385",
    "longitude": "-132.746435",
    "latitude": "-64.1862315"
  },
  "26": {
    "id": 36,
    "name": "Rebecca Lopez",
    "address": "6969 Mark Parkway Apt. 446\nMarieburgh, AZ 06163",
    "longitude": "-124.988041",
    "latitude": "-72.188619"
  },
  "27": {
    "id": 78,
    "name": "Colleen Bailey",
    "address": "6248 Lisa Forks Suite 940\nPowellhaven, VT 13871",
    "longitude": "12.908936",
    "latitude": "-78.1635275"
  },
  "28": {
    "id": 52,
    "name": "Jennifer Evans",
    "address": "8605 Lopez Forks Apt. 333\nMichaelachester, CO 75257",
    "longitude": "-86.894488",
    "latitude": "-6.2376305"
  },
  "29": {
    "id": 50,
    "name": "Janice Kennedy",
    "address": "USS Nguyen\nFPO AA 81062",
    "longitude": "149.579156",
    "latitude": "-69.1546565"
  },
  "30": {
    "id": 14,
    "name": "Taylor Hernandez",
    "address": "8745 Walker Mountains Suite 368\nMichaelbury, AK 64620",
    "longitude": "156.153115",
    "latitude": "73.359480"
  },
  "31": {
    "id": 92,
    "name": "Valerie Contreras",
    "address": "9602 Tyler Mountain\nMistyberg, OK 88316",
    "longitude": "-16.094007",
    "latitude": "-6.4551375"
  },
  "32": {
    "id": 99,
    "name": "Danielle Mayo",
    "address": "76328 Love Centers\nWest Christopherborough, MN 61090",
    "longitude": "129.002926",
    "latitude": "-14.740066"
  },
  "33": {
    "id": 40,
    "name": "Logan Smith",
    "address": "9678 Jon Springs Suite 182\nBrettview, MA 96419",
    "longitude": "144.548125",
    "latitude": "2.383867"
  },
  "34": {
    "id": 32,
    "name": "Joshua Kerr",
    "address": "USCGC Hughes\nFPO AA 07654",
    "longitude": "-114.805455",
    "latitude": "-29.062712"
  },
  "35": {
    "id": 74,
    "name": "Melanie Gomez",
    "address": "53466 Victor Neck\nAyalamouth, WV 41785",
    "longitude": "-59.860722",
    "latitude": "74.150704"
  },
  "36": {
    "id": 68,
    "name": "Lisa Wilson",
    "address": "005 Morales Stravenue\nNorth William, AL 92882",
    "longitude": "101.683662",
    "latitude": "-38.493005"
  },
  "37": {
    "id": 96,
    "name": "Stephanie Webb",
    "address": "172 Perez Turnpike\nMurphyfort, ND 47096",
    "longitude": "-159.755378",
    "latitude": "29.201269"
  },
  "38": {
    "id": 37,
    "name": "Sean Gomez",
    "address": "557 Lacey Roads\nLake Lindafurt, NE 69689",
    "longitude": "84.400411",
    "latitude": "37.9223895"
  },
  "39": {
    "id": 27,
    "name": "Mrs. Amber Jones DVM",
    "address": "6515 Jason Road Suite 222\nStephanieberg, AL 62975",
    "longitude": "-63.165448",
    "latitude": "-44.6331625"
  }
}